[
  {
    "id": "375",
    "lat": "37.917238",
    "lon": "-122.304442",
    "name": "A.M. or M.B. Beltramo"
  },
  {
    "id": "376",
    "lat": "37.878569",
    "lon": "-122.299445",
    "name": "A3GEO, Inc."
  },
  {
    "id": "377",
    "lat": "37.862148",
    "lon": "-122.254641",
    "name": "Vine St Properties "
  },
  {
    "id": "378",
    "lat": "37.800344",
    "lon": "-122.269774",
    "name": "ADAM MARSH"
  },
  {
    "id": "379",
    "lat": "37.865871",
    "lon": "-122.264955",
    "name": "ADAM SUSANECK"
  },
  {
    "id": "380",
    "lat": "37.877211",
    "lon": "-122.256354",
    "name": "Adam Ward"
  },
  {
    "id": "381",
    "lat": "37.864453",
    "lon": "-122.251818",
    "name": "AKSHAY RAN"
  },
  {
    "id": "382",
    "lat": "37.8734631324",
    "lon": "-122.28805694",
    "name": " Colin Campbell  "
  },
  {
    "id": "383",
    "lat": "37.889242",
    "lon": "-122.287304",
    "name": "Alesia Alonso/David Whalen"
  },
  {
    "id": "384",
    "lat": "37.825806",
    "lon": "-122.248514",
    "name": "Alex Ayoub"
  },
  {
    "id": "385",
    "lat": "37.906684",
    "lon": "-122.290376",
    "name": "ALEX BUTLER"
  },
  {
    "id": "386",
    "lat": "37.860744",
    "lon": "-122.221373",
    "name": "ALI WONG"
  },
  {
    "id": "387",
    "lat": "37.892695",
    "lon": "-122.296728",
    "name": "Alice G. Minellone"
  },
  {
    "id": "388",
    "lat": "37.868625",
    "lon": "-122.286021",
    "name": "ALISSA STOLZ & TIMOTHY K BERTUCCO"
  },
  {
    "id": "389",
    "lat": "37.777865",
    "lon": "-122.270054",
    "name": "Allison Sadauskas"
  },
  {
    "id": "390",
    "lat": "37.774566",
    "lon": "-121.986977",
    "name": "ALVARO PASTOR"
  },
  {
    "id": "391",
    "lat": "37.859397",
    "lon": "-122.253635",
    "name": "Alyssa Funk"
  },
  {
    "id": "392",
    "lat": "37.782637",
    "lon": "-122.407717",
    "name": "Amanda Fick(zaarly)"
  },
  {
    "id": "393",
    "lat": "37.839499",
    "lon": "-122.258589",
    "name": "AMIE FRISCHER"
  },
  {
    "id": "394",
    "lat": "37.882549",
    "lon": "-122.27045",
    "name": "ANA"
  },
  {
    "id": "395",
    "lat": "37.861374",
    "lon": "-122.287178",
    "name": "ANA DASUDO"
  },
  {
    "id": "396",
    "lat": "37.896681",
    "lon": "-122.300236",
    "name": "ANDREW HOFFMAN"
  },
  {
    "id": "397",
    "lat": "37.8591",
    "lon": "-122.24798",
    "name": "ANDY NGO"
  },
  {
    "id": "398",
    "lat": "37.888675",
    "lon": "-122.300928",
    "name": "ANGELA GOMEZ"
  },
  {
    "id": "399",
    "lat": "37.863969",
    "lon": "-122.255444",
    "name": "ANISHA BABBAR"
  },
  {
    "id": "400",
    "lat": "37.861131",
    "lon": "-122.280393",
    "name": "ANJOLIE SHERIN"
  },
  {
    "id": "401",
    "lat": "37.887665",
    "lon": "-122.257133",
    "name": "ANNA JOSEPH"
  },
  {
    "id": "402",
    "lat": "37.88114",
    "lon": "-122.291741",
    "name": "April Escamilla"
  },
  {
    "id": "403",
    "lat": "37.837304",
    "lon": "-122.250782",
    "name": "Archeo-Tec Inc"
  },
  {
    "id": "404",
    "lat": "37.896919",
    "lon": "-122.266502",
    "name": "ARMAN REZAEE"
  },
  {
    "id": "405",
    "lat": "37.872694",
    "lon": "-122.271232",
    "name": "ARMAND DUNG"
  },
  {
    "id": "406",
    "lat": "37.843819",
    "lon": "-122.239864",
    "name": "ARMANDO KOGHAN"
  },
  {
    "id": "407",
    "lat": "37.973299",
    "lon": "-122.284203",
    "name": "Arthur and Caryle Wells"
  },
  {
    "id": "408",
    "lat": "38.021537",
    "lon": "-122.550997",
    "name": "ATHENA QU"
  },
  {
    "id": "409",
    "lat": "37.925817",
    "lon": "-122.296536",
    "name": "AURA"
  },
  {
    "id": "410",
    "lat": "37.901482",
    "lon": "-122.299114",
    "name": "B & T Bookkepping INC"
  },
  {
    "id": "411",
    "lat": "37.901067",
    "lon": "-122.266857",
    "name": "BEBE MCRAE"
  },
  {
    "id": "412",
    "lat": "37.875283",
    "lon": "-122.273246",
    "name": "BECCA TAYLOR"
  },
  {
    "id": "413",
    "lat": "38.132599",
    "lon": "-122.207232",
    "name": "Belvedere Residences"
  },
  {
    "id": "414",
    "lat": "37.891231",
    "lon": "-122.285064",
    "name": "BERG, KATHIE"
  },
  {
    "id": "415",
    "lat": "37.871354",
    "lon": "-122.273738",
    "name": "Berkeley Acupuncture Project"
  },
  {
    "id": "416",
    "lat": "37.889012",
    "lon": "-122.266417",
    "name": "BILL"
  },
  {
    "id": "417",
    "lat": "37.872568",
    "lon": "-122.280978",
    "name": "Bill Heil"
  },
  {
    "id": "418",
    "lat": "37.848166",
    "lon": "-122.265825",
    "name": "BORIS FEDOROV"
  },
  {
    "id": "419",
    "lat": "37.795081",
    "lon": "-122.191789",
    "name": "BOYD, KAREN / ROBERTS SAMEE"
  },
  {
    "id": "420",
    "lat": "37.892578",
    "lon": "-122.292505",
    "name": "Bradley & Linda Carlton"
  },
  {
    "id": "421",
    "lat": "37.862596",
    "lon": "-122.25325",
    "name": "BRIAN CLANCY"
  },
  {
    "id": "422",
    "lat": "37.8854232972",
    "lon": "-122.2905044",
    "name": "Brian Greenwood & Susan Kellogg"
  },
  {
    "id": "423",
    "lat": "37.875226",
    "lon": "-122.273264",
    "name": "BRIAN STIVENS"
  },
  {
    "id": "424",
    "lat": "38.085677",
    "lon": "-122.220606",
    "name": "BRUCE DUSTOFF"
  },
  {
    "id": "425",
    "lat": "37.906323",
    "lon": "-122.274419",
    "name": "BRUCE NASH"
  },
  {
    "id": "426",
    "lat": "37.869696",
    "lon": "-122.261101",
    "name": "Cal. Alummni Association."
  },
  {
    "id": "427",
    "lat": "37.828109",
    "lon": "-122.210445",
    "name": "Candice Economides"
  },
  {
    "id": "428",
    "lat": "37.862116",
    "lon": "-122.269512",
    "name": "Cara Robin"
  },
  {
    "id": "429",
    "lat": "37.883666",
    "lon": "-122.300253",
    "name": "CARL LOEFFLER"
  },
  {
    "id": "430",
    "lat": "37.837715",
    "lon": "-122.286546",
    "name": "Carlson Financial Management"
  },
  {
    "id": "431",
    "lat": "37.817387",
    "lon": "-122.239472",
    "name": "CAROLYN KERR"
  },
  {
    "id": "432",
    "lat": "37.906848",
    "lon": "-122.272092",
    "name": "CAROLYN MCNIVEN"
  },
  {
    "id": "433",
    "lat": "37.894225",
    "lon": "-122.303644",
    "name": "CARRY FOX"
  },
  {
    "id": "434",
    "lat": "37.888313",
    "lon": "-122.298336",
    "name": "Castle Rock Realty"
  },
  {
    "id": "435",
    "lat": "37.73078",
    "lon": "-122.158617",
    "name": "Catherine Baldi"
  },
  {
    "id": "436",
    "lat": "37.910944",
    "lon": "-122.294892",
    "name": "CATHY TARUSKIN"
  },
  {
    "id": "437",
    "lat": "38.015544",
    "lon": "-122.701161",
    "name": "CATRINA WOLFE & MICHAEL BRANDVOLD"
  },
  {
    "id": "438",
    "lat": "37.843502",
    "lon": "-122.233458",
    "name": "Chantal Sampogna"
  },
  {
    "id": "439",
    "lat": "37.894057",
    "lon": "-122.285874",
    "name": "CHELA RICHHEIMER"
  },
  {
    "id": "440",
    "lat": "37.875306",
    "lon": "-122.269749",
    "name": "Cheryl Hunt"
  },
  {
    "id": "441",
    "lat": "37.86386",
    "lon": "-122.257294",
    "name": "CHO"
  },
  {
    "id": "442",
    "lat": "37.804202",
    "lon": "-122.261466",
    "name": "CHRIS & ANDREA OLSON"
  },
  {
    "id": "443",
    "lat": "37.909821",
    "lon": "-122.292611",
    "name": "CHRISTOPHER SHUFORD"
  },
  {
    "id": "444",
    "lat": "37.889895",
    "lon": "-122.288106",
    "name": "Christopher Y. Wu"
  },
  {
    "id": "445",
    "lat": "37.942952",
    "lon": "-122.39009",
    "name": "Cindy Wilson"
  },
  {
    "id": "446",
    "lat": "37.785837",
    "lon": "-122.184374",
    "name": "CLAIRE CHASE TANNER"
  },
  {
    "id": "447",
    "lat": "37.891751",
    "lon": "-122.282117",
    "name": "COLE SMITH & SONIA"
  },
  {
    "id": "448",
    "lat": "37.865206",
    "lon": "-122.273747",
    "name": "COLIN MOSS"
  },
  {
    "id": "449",
    "lat": "37.907801",
    "lon": "-122.275486",
    "name": "Connie & David Pyle"
  },
  {
    "id": "450",
    "lat": "37.811823",
    "lon": "-122.258282",
    "name": "COSMO LETTICH"
  },
  {
    "id": "451",
    "lat": "37.796714",
    "lon": "-122.398834",
    "name": "Cynthia Whitsell/charles H Dutkin"
  },
  {
    "id": "452",
    "lat": "37.852474",
    "lon": "-122.273896",
    "name": "Dan Bristol"
  },
  {
    "id": "453",
    "lat": "37.903134",
    "lon": "-122.267756",
    "name": "DANA"
  },
  {
    "id": "454",
    "lat": "37.849433",
    "lon": "-122.292053",
    "name": "DANIELLE HOFFMAN"
  },
  {
    "id": "455",
    "lat": "38.051906",
    "lon": "-122.233105",
    "name": "DANNY JANG"
  },
  {
    "id": "456",
    "lat": "37.881734",
    "lon": "-122.271992",
    "name": "DAVID ARZO"
  },
  {
    "id": "457",
    "lat": "37.795775",
    "lon": "-122.192096",
    "name": "David BLake"
  },
  {
    "id": "458",
    "lat": "37.924063",
    "lon": "-122.509373",
    "name": "David Evans"
  },
  {
    "id": "459",
    "lat": "37.910475",
    "lon": "-122.310436",
    "name": "DAVID GILL"
  },
  {
    "id": "460",
    "lat": "37.891625",
    "lon": "-122.284021",
    "name": "DAVID GREEN"
  },
  {
    "id": "461",
    "lat": "37.908609",
    "lon": "-122.280119",
    "name": "David Oliver"
  },
  {
    "id": "462",
    "lat": "37.881633",
    "lon": "-122.24721",
    "name": "DAVID OURISMAN"
  },
  {
    "id": "463",
    "lat": "37.868632",
    "lon": "-122.249561",
    "name": "DAVID TISCHLER"
  },
  {
    "id": "464",
    "lat": "37.975564",
    "lon": "-122.073511",
    "name": "DAYU ZHENG"
  },
  {
    "id": "465",
    "lat": "37.900149999999996",
    "lon": "-122.27601",
    "name": "Debby Frish/David Kittams"
  },
  {
    "id": "466",
    "lat": "37.877723",
    "lon": "-122.261143",
    "name": "DEBORAH A CRIMMINS & PAUL GOERS"
  },
  {
    "id": "467",
    "lat": "37.885197",
    "lon": "-122.289177",
    "name": "Deirdre M / Jhon D. Grenee"
  },
  {
    "id": "468",
    "lat": "37.855681",
    "lon": "-122.249935",
    "name": "DENNIS R PORTER"
  },
  {
    "id": "469",
    "lat": "37.833551",
    "lon": "-122.193607",
    "name": "Doris Forman/ Harvey C. Forman"
  },
  {
    "id": "470",
    "lat": "37.814192",
    "lon": "-122.254943",
    "name": "EDDIE AVANIAN"
  },
  {
    "id": "471",
    "lat": "37.878362",
    "lon": "-122.303465",
    "name": "Edward Elbrauer"
  },
  {
    "id": "472",
    "lat": "37.868171",
    "lon": "-122.250151",
    "name": "EDWARD WILLIAMS"
  },
  {
    "id": "473",
    "lat": "37.862881",
    "lon": "-122.259537",
    "name": "EDWIN SHO"
  },
  {
    "id": "474",
    "lat": "37.865519",
    "lon": "-122.261817",
    "name": "Eileen Marshall"
  },
  {
    "id": "475",
    "lat": "37.855561",
    "lon": "-122.251941",
    "name": "ELEA BERNOU"
  },
  {
    "id": "476",
    "lat": "37.906734",
    "lon": "-122.275261",
    "name": "ELENA FUCHS"
  },
  {
    "id": "477",
    "lat": "37.868537",
    "lon": "-122.280343",
    "name": "ELIZABETH  LANG"
  },
  {
    "id": "478",
    "lat": "37.857085",
    "lon": "-122.254844",
    "name": "ELIZABETH KORSA DR."
  },
  {
    "id": "479",
    "lat": "37.88687",
    "lon": "-122.297748",
    "name": "ELIZABETH RAMIREZ"
  },
  {
    "id": "480",
    "lat": "37.92575",
    "lon": "-122.291737",
    "name": "ELLEN R FISHER"
  },
  {
    "id": "481",
    "lat": "37.887855",
    "lon": "-122.292069",
    "name": "ELLEN ROOSEVELT"
  },
  {
    "id": "482",
    "lat": "37.878063",
    "lon": "-122.285958",
    "name": "EMBREE, HOLLY"
  },
  {
    "id": "483",
    "lat": "37.862688",
    "lon": "-122.253859",
    "name": "EMESE FOSS"
  },
  {
    "id": "484",
    "lat": "37.214591",
    "lon": "-121.875928",
    "name": "EMILY MEI MUI SHERK  / POON, RONNIE"
  },
  {
    "id": "485",
    "lat": "37.889186",
    "lon": "-122.292149",
    "name": "EMILY POWELL"
  },
  {
    "id": "486",
    "lat": "37.880115",
    "lon": "-122.270318",
    "name": "EMILY TIENKEN"
  },
  {
    "id": "487",
    "lat": "37.868249",
    "lon": "-122.257767",
    "name": "EMILY YU"
  },
  {
    "id": "488",
    "lat": "37.866206",
    "lon": "-122.248833",
    "name": "ERIC AHN"
  },
  {
    "id": "489",
    "lat": "37.859445",
    "lon": "-122.275629",
    "name": "ERICA B GRUBB"
  },
  {
    "id": "490",
    "lat": "37.913015",
    "lon": "-122.287746",
    "name": "Erika Eberline/S. Eberline"
  },
  {
    "id": "491",
    "lat": "37.8995",
    "lon": "-122.28553",
    "name": "ERIKA GEE"
  },
  {
    "id": "492",
    "lat": "37.854051",
    "lon": "-122.261776",
    "name": "ERIKA GIMBEL"
  },
  {
    "id": "493",
    "lat": "37.79024",
    "lon": "-122.245455",
    "name": "ERIN WOOD"
  },
  {
    "id": "494",
    "lat": "37.780913",
    "lon": "-122.28838",
    "name": "Esther A Manchik"
  },
  {
    "id": "495",
    "lat": "37.879709",
    "lon": "-122.292176",
    "name": "EUNICE WOO"
  },
  {
    "id": "496",
    "lat": "38.250071",
    "lon": "-122.034769",
    "name": "FIRST PLACE FOR YOUTH (Diana Kenlow)"
  },
  {
    "id": "497",
    "lat": "37.820717",
    "lon": "-122.249449",
    "name": "FLO LETO"
  },
  {
    "id": "498",
    "lat": "37.775384",
    "lon": "-122.394743",
    "name": "FLORENA NEMTEANU"
  },
  {
    "id": "499",
    "lat": "37.900122",
    "lon": "-122.304496",
    "name": "GABE BELTRAN"
  },
  {
    "id": "500",
    "lat": "37.909886",
    "lon": "-122.284464",
    "name": "Gabrielle Saponara/Paul Adamson"
  },
  {
    "id": "501",
    "lat": "37.846262",
    "lon": "-122.278342",
    "name": "GAIL LILLIAN"
  },
  {
    "id": "502",
    "lat": "37.918037",
    "lon": "-122.347446",
    "name": "GAYLE D JONE"
  },
  {
    "id": "503",
    "lat": "37.887106",
    "lon": "-122.284783",
    "name": "GERALD WEITZ & JANET WEITZ"
  },
  {
    "id": "504",
    "lat": "37.831723",
    "lon": "-122.258285",
    "name": "GERSON, RANDI / LESSER, SARA R."
  },
  {
    "id": "505",
    "lat": "37.887753",
    "lon": "-122.296512",
    "name": "GERTRUDE S BOSKIN"
  },
  {
    "id": "506",
    "lat": "37.877997",
    "lon": "-122.301736",
    "name": "Gingko Press Inc."
  },
  {
    "id": "507",
    "lat": "37.857126",
    "lon": "-122.231291",
    "name": "GINNY BRES"
  },
  {
    "id": "508",
    "lat": "37.889433",
    "lon": "-122.279616",
    "name": "GOHLKE, MARTIN / CORNELIA"
  },
  {
    "id": "509",
    "lat": "37.89044",
    "lon": "-122.281449",
    "name": "GOLDSTEIN, EDITH"
  },
  {
    "id": "510",
    "lat": "38.027004",
    "lon": "-122.548587",
    "name": "Gouri Yogalingam"
  },
  {
    "id": "511",
    "lat": "37.879738",
    "lon": "-122.305772",
    "name": "GREEN SCIENCE POLICY INSTITUTE"
  },
  {
    "id": "512",
    "lat": "37.856976",
    "lon": "-122.257925",
    "name": "Greg Boccieri"
  },
  {
    "id": "513",
    "lat": "37.84117",
    "lon": "-122.287866",
    "name": "Gregory Paul Wallace"
  },
  {
    "id": "514",
    "lat": "37.812337",
    "lon": "-122.275658",
    "name": "HANNAH C HUGHES"
  },
  {
    "id": "515",
    "lat": "37.863581",
    "lon": "-122.256882",
    "name": "HARIS QURAISHI"
  },
  {
    "id": "516",
    "lat": "37.872494",
    "lon": "-122.270448",
    "name": "HARISH PALANISWAMY"
  },
  {
    "id": "517",
    "lat": "38.116752",
    "lon": "-122.235186",
    "name": "Heather Mabbley"
  },
  {
    "id": "518",
    "lat": "37.883528",
    "lon": "-122.263134",
    "name": "HELEN BUDWORTH"
  },
  {
    "id": "519",
    "lat": "37.883551",
    "lon": "-122.278875",
    "name": "HELEN TOY"
  },
  {
    "id": "520",
    "lat": "37.958289",
    "lon": "-122.501478",
    "name": "Heynneman European"
  },
  {
    "id": "521",
    "lat": "37.856311",
    "lon": "-122.229423",
    "name": "Hillery Trippe"
  },
  {
    "id": "522",
    "lat": "37.861357",
    "lon": "-122.225627",
    "name": "HOLVE, JANICE & DONALD"
  },
  {
    "id": "523",
    "lat": "37.849813",
    "lon": "-122.269893",
    "name": "Ian Johnson"
  },
  {
    "id": "524",
    "lat": "37.857488",
    "lon": "-122.269611",
    "name": "ILA CASY DEISS"
  },
  {
    "id": "525",
    "lat": "37.800574",
    "lon": "-122.269989",
    "name": "INDHI KERR"
  },
  {
    "id": "526",
    "lat": "37.865881",
    "lon": "-122.297368",
    "name": "Ingrid"
  },
  {
    "id": "527",
    "lat": "37.896113",
    "lon": "-122.28448",
    "name": "Ingrid Mittermaier/Serkan Hosten"
  },
  {
    "id": "528",
    "lat": "37.864826",
    "lon": "-122.254198",
    "name": "JACKIE HWANG"
  },
  {
    "id": "529",
    "lat": "37.938379",
    "lon": "-122.308429",
    "name": "Jaimen King"
  },
  {
    "id": "530",
    "lat": "37.86281",
    "lon": "-122.258445",
    "name": "JAKE ANDERSON"
  },
  {
    "id": "531",
    "lat": "37.906622",
    "lon": "-122.31164",
    "name": "JAMES CAVALIER"
  },
  {
    "id": "532",
    "lat": "38.018631",
    "lon": "-122.283284",
    "name": "JAMES YANG"
  },
  {
    "id": "533",
    "lat": "37.854786",
    "lon": "-122.269558",
    "name": "JAY R SHECKLEY"
  },
  {
    "id": "534",
    "lat": "37.813614",
    "lon": "-122.270055",
    "name": "JAZMIN ?"
  },
  {
    "id": "535",
    "lat": "37.903979",
    "lon": "-122.302434",
    "name": "JEANNE COURTNEY"
  },
  {
    "id": "536",
    "lat": "37.848428",
    "lon": "-122.285758",
    "name": "Jeff A Bogard"
  },
  {
    "id": "537",
    "lat": "37.973932",
    "lon": "-122.525437",
    "name": "JEFF BUCKELEY"
  },
  {
    "id": "538",
    "lat": "37.762657",
    "lon": "-122.260009",
    "name": "JEN GANG"
  },
  {
    "id": "539",
    "lat": "37.863021",
    "lon": "-122.265535",
    "name": "JENNA LEWIS"
  },
  {
    "id": "540",
    "lat": "37.891011",
    "lon": "-122.274754",
    "name": "Jennie Merovick"
  },
  {
    "id": "541",
    "lat": "37.886859",
    "lon": "-122.291918",
    "name": "Jennie Quan"
  },
  {
    "id": "542",
    "lat": "37.850673",
    "lon": "-122.275792",
    "name": "Jennifer Disolva"
  },
  {
    "id": "543",
    "lat": "37.866995",
    "lon": "-122.281982",
    "name": "Jennifer Fechner"
  },
  {
    "id": "544",
    "lat": "37.8638",
    "lon": "-122.282317",
    "name": "JENNIFER HEDDLE"
  },
  {
    "id": "545",
    "lat": "37.860531",
    "lon": "-122.293132",
    "name": "JESSICA JENNINGS"
  },
  {
    "id": "546",
    "lat": "37.908765",
    "lon": "-122.2827",
    "name": "Jim Fisher/ Katharine Mieskowski"
  },
  {
    "id": "547",
    "lat": "37.856812",
    "lon": "-122.289748",
    "name": "JINETTE AT MARVIN LIPOFSKI"
  },
  {
    "id": "548",
    "lat": "37.894207",
    "lon": "-122.259953",
    "name": "JOAN MARTIN"
  },
  {
    "id": "549",
    "lat": "37.942189",
    "lon": "-122.318256",
    "name": "JOANNA GUMMDRY"
  },
  {
    "id": "550",
    "lat": "37.892504",
    "lon": "-122.283943",
    "name": "JOCELYN REAL & THOMAS E RANKIN"
  },
  {
    "id": "551",
    "lat": "37.892661",
    "lon": "-122.288071",
    "name": "Jody Parsons/Richard Wong"
  },
  {
    "id": "552",
    "lat": "37.892248",
    "lon": "-122.256218",
    "name": "JOHAN DOWDY"
  },
  {
    "id": "553",
    "lat": "37.89243",
    "lon": "-122.295211",
    "name": "JOHN LEICHENGER"
  },
  {
    "id": "554",
    "lat": "37.87769",
    "lon": "-122.268228",
    "name": "JOHN LOPEZ"
  },
  {
    "id": "555",
    "lat": "37.908055",
    "lon": "-122.28305",
    "name": "JONATHAN DHAJET"
  },
  {
    "id": "556",
    "lat": "37.90568",
    "lon": "-122.294927",
    "name": "Jonathan K Founche / Tara s Easley"
  },
  {
    "id": "557",
    "lat": "37.864721",
    "lon": "-122.265388",
    "name": "JORDAN N CHAN"
  },
  {
    "id": "558",
    "lat": "37.913157",
    "lon": "-122.287417",
    "name": "JORGE MONTOYA"
  },
  {
    "id": "559",
    "lat": "37.901588",
    "lon": "-122.277069",
    "name": "Josephine Ann Perry"
  },
  {
    "id": "560",
    "lat": "37.964121",
    "lon": "-122.340569",
    "name": "JOSEPHINE LEUNG"
  },
  {
    "id": "561",
    "lat": "37.870007",
    "lon": "-122.282736",
    "name": "JOSH KAPLAN"
  },
  {
    "id": "562",
    "lat": "37.8846",
    "lon": "-122.290185",
    "name": "JUANITA J PETERSON & NICK PETERSON"
  },
  {
    "id": "563",
    "lat": "37.813473",
    "lon": "-122.248337",
    "name": "Julia Melnicoe"
  },
  {
    "id": "564",
    "lat": "37.894213",
    "lon": "-122.262943",
    "name": "JULIA SAGALOVSKY"
  },
  {
    "id": "565",
    "lat": "37.875533",
    "lon": "-122.28062",
    "name": "JULIE SHIMKO"
  },
  {
    "id": "566",
    "lat": "37.875861",
    "lon": "-122.269447",
    "name": "JUSTIN"
  },
  {
    "id": "567",
    "lat": "37.8623879156",
    "lon": "-122.25583611",
    "name": "Justin Jee"
  },
  {
    "id": "568",
    "lat": "37.864877",
    "lon": "-122.269582",
    "name": "KARA CHUNG"
  },
  {
    "id": "569",
    "lat": "37.902936",
    "lon": "-122.282013",
    "name": "KAREN CHILDRESS"
  },
  {
    "id": "570",
    "lat": "37.876045",
    "lon": "-122.518878",
    "name": "Karhryna  Yost"
  },
  {
    "id": "571",
    "lat": "37.861436",
    "lon": "-122.282055",
    "name": "Kate/Scott McGlashan"
  },
  {
    "id": "572",
    "lat": "37.887204",
    "lon": "-122.256677",
    "name": "Katherine /Mordecaid   Garelick"
  },
  {
    "id": "573",
    "lat": "37.979478",
    "lon": "-122.314017",
    "name": "KATHERINE A COSTALES"
  },
  {
    "id": "574",
    "lat": "37.858955",
    "lon": "-122.254104",
    "name": "KATHERINE BOWEN"
  },
  {
    "id": "575",
    "lat": "37.890012",
    "lon": "-122.122093",
    "name": "Kathleen Haley"
  },
  {
    "id": "576",
    "lat": "37.806732",
    "lon": "-122.199911",
    "name": "KATIE M EAGAN"
  },
  {
    "id": "577",
    "lat": "37.873469",
    "lon": "-122.269878",
    "name": "Keagan Wethington"
  },
  {
    "id": "578",
    "lat": "37.8642136134",
    "lon": "-122.29803638",
    "name": "KEENE BUILDERS"
  },
  {
    "id": "579",
    "lat": "37.589147",
    "lon": "-122.40307",
    "name": "KELLY LISBAKKEN"
  },
  {
    "id": "580",
    "lat": "37.883077",
    "lon": "-122.291489",
    "name": "Kelly M. Campbell / Stephen Hinshaw"
  },
  {
    "id": "581",
    "lat": "37.881415",
    "lon": "-122.2918",
    "name": "Khristine Anja Page"
  },
  {
    "id": "582",
    "lat": "37.847907",
    "lon": "-122.279451",
    "name": "Kimberly Elaine Bellone"
  },
  {
    "id": "583",
    "lat": "37.898126",
    "lon": "-122.290109",
    "name": "KRIS GREIN"
  },
  {
    "id": "584",
    "lat": "37.794437",
    "lon": "-122.19644",
    "name": "Kristen Gustavson"
  },
  {
    "id": "585",
    "lat": "37.855661",
    "lon": "-122.252479",
    "name": "KRISTEN MUIR"
  },
  {
    "id": "586",
    "lat": "37.915523",
    "lon": "-122.508524",
    "name": "KRISTEN SUNDBERG"
  },
  {
    "id": "587",
    "lat": "37.892307",
    "lon": "-122.282906",
    "name": "Kristin y Hill/ Karen K Stondill"
  },
  {
    "id": "588",
    "lat": "37.876045",
    "lon": "-122.518878",
    "name": "KRISTINA WALLENDER"
  },
  {
    "id": "589",
    "lat": "37.869846",
    "lon": "-122.266428",
    "name": "LAN SHAWN"
  },
  {
    "id": "590",
    "lat": "37.888167",
    "lon": "-122.049732",
    "name": "LANA FERNANDEZ"
  },
  {
    "id": "591",
    "lat": "37.820921",
    "lon": "-122.237585",
    "name": "LAURA GROSSMAN"
  },
  {
    "id": "592",
    "lat": "37.893676",
    "lon": "-122.287937",
    "name": "Laura Stein Turbow"
  },
  {
    "id": "593",
    "lat": "37.859094",
    "lon": "-122.485251",
    "name": "LAUREN KELLY"
  },
  {
    "id": "594",
    "lat": "37.858132",
    "lon": "-122.292732",
    "name": "LAURENCE PLOUVIER"
  },
  {
    "id": "595",
    "lat": "37.544264",
    "lon": "-122.362596",
    "name": "LENNY LOW"
  },
  {
    "id": "596",
    "lat": "37.886879",
    "lon": "-122.288537",
    "name": "Leslie isshin"
  },
  {
    "id": "597",
    "lat": "37.882722",
    "lon": "-122.269418",
    "name": "LINDA MCGEARY"
  },
  {
    "id": "598",
    "lat": "37.89626",
    "lon": "-122.28845",
    "name": "LINSAY SKIBA"
  },
  {
    "id": "599",
    "lat": "37.898683",
    "lon": "-122.262413",
    "name": "Lisa / Jacques Bolivar"
  },
  {
    "id": "600",
    "lat": "37.850648",
    "lon": "-122.264832",
    "name": "Lisa A Grady"
  },
  {
    "id": "601",
    "lat": "37.891391",
    "lon": "-122.271858",
    "name": "LISA HAMMON"
  },
  {
    "id": "602",
    "lat": "37.824779",
    "lon": "-122.187644",
    "name": "LISA J BURNES"
  },
  {
    "id": "603",
    "lat": "37.854443",
    "lon": "-122.273566",
    "name": "Lisa Juachon"
  },
  {
    "id": "604",
    "lat": "37.869422",
    "lon": "-122.267201",
    "name": "LISA KORBATOV"
  },
  {
    "id": "605",
    "lat": "37.911472",
    "lon": "-122.278721",
    "name": "LISA PRANGE"
  },
  {
    "id": "606",
    "lat": "37.935994",
    "lon": "-122.321569",
    "name": "LISA RABER"
  },
  {
    "id": "607",
    "lat": "37.888883",
    "lon": "-122.297773",
    "name": "LISA VAN"
  },
  {
    "id": "608",
    "lat": "37.915758",
    "lon": "-122.071517",
    "name": "LISA ZACHS"
  },
  {
    "id": "609",
    "lat": "37.909455",
    "lon": "-122.303798",
    "name": "Liz"
  },
  {
    "id": "610",
    "lat": "37.828605",
    "lon": "-122.269842",
    "name": "LIZ DOBBINS"
  },
  {
    "id": "611",
    "lat": "37.912725",
    "lon": "-122.304653",
    "name": "LIZ RHOADES"
  },
  {
    "id": "612",
    "lat": "37.848759",
    "lon": "-122.26194",
    "name": "LOLA DVORAK"
  },
  {
    "id": "613",
    "lat": "37.883239",
    "lon": "-122.293668",
    "name": "LOREEN  BRUCKMANN"
  },
  {
    "id": "614",
    "lat": "37.868893",
    "lon": "-122.278913",
    "name": "Lucia Sayre"
  },
  {
    "id": "615",
    "lat": "37.868055",
    "lon": "-122.266319",
    "name": "Lucia Sayre Office"
  },
  {
    "id": "616",
    "lat": "37.689163",
    "lon": "-122.089807",
    "name": "Lucy Anne Rufzel"
  },
  {
    "id": "617",
    "lat": "37.890182",
    "lon": "-122.304159",
    "name": "LUCY WRIGHT"
  },
  {
    "id": "618",
    "lat": "37.760461",
    "lon": "-122.162285",
    "name": "LYNN ZANN"
  },
  {
    "id": "619",
    "lat": "37.900662",
    "lon": "-122.295031",
    "name": "Mani Terry Feniger"
  },
  {
    "id": "620",
    "lat": "37.831255",
    "lon": "-122.260597",
    "name": "Mara Hickey"
  },
  {
    "id": "621",
    "lat": "37.860933",
    "lon": "-122.281852",
    "name": "Marcy Straw"
  },
  {
    "id": "622",
    "lat": "37.859971",
    "lon": "-122.256162",
    "name": "MARGARET  GOODMAN"
  },
  {
    "id": "623",
    "lat": "37.837659",
    "lon": "-122.249991",
    "name": "MARIAKE COULARS"
  },
  {
    "id": "624",
    "lat": "37.869869",
    "lon": "-122.284603",
    "name": "MARIE ASPERUD"
  },
  {
    "id": "625",
    "lat": "37.852398",
    "lon": "-122.236617",
    "name": "MARRUS, RICHARD & ELONA MICHELE"
  },
  {
    "id": "626",
    "lat": "37.895536",
    "lon": "-122.27444",
    "name": "MARY RUTH QUINN"
  },
  {
    "id": "627",
    "lat": "37.858169",
    "lon": "-122.238751",
    "name": "Maryann Mastala"
  },
  {
    "id": "628",
    "lat": "37.884906",
    "lon": "-122.288925",
    "name": "Maureen Mary Moore"
  },
  {
    "id": "629",
    "lat": "37.902411",
    "lon": "-122.28998",
    "name": "MAUREEN WHALEN"
  },
  {
    "id": "630",
    "lat": "37.868316",
    "lon": "-122.24428",
    "name": "MAURREN"
  },
  {
    "id": "631",
    "lat": "37.954963",
    "lon": "-122.371886",
    "name": "MAYURI"
  },
  {
    "id": "632",
    "lat": "37.8695",
    "lon": "-122.276405",
    "name": "MEGAN"
  },
  {
    "id": "633",
    "lat": "37.667296",
    "lon": "-122.10732",
    "name": "MELANIE GRIEGO"
  },
  {
    "id": "634",
    "lat": "37.912889",
    "lon": "-122.304371",
    "name": "MELANIE LEA PROCTOR"
  },
  {
    "id": "635",
    "lat": "37.870476",
    "lon": "-122.297696",
    "name": "MELANIE MACINNIS"
  },
  {
    "id": "636",
    "lat": "37.924832",
    "lon": "-122.304903",
    "name": "MELISSA BREACH"
  },
  {
    "id": "637",
    "lat": "37.999159",
    "lon": "-122.263117",
    "name": "MELISSA COHEA"
  },
  {
    "id": "638",
    "lat": "37.909512",
    "lon": "-122.344538",
    "name": "MICHAEL A. MITCHELL"
  },
  {
    "id": "639",
    "lat": "37.867621",
    "lon": "-122.258655",
    "name": "Michael Cohen"
  },
  {
    "id": "640",
    "lat": "37.878155",
    "lon": "-122.255887",
    "name": "MICHAEL H WEISS"
  },
  {
    "id": "641",
    "lat": "37.882431",
    "lon": "-122.281057",
    "name": "MICHAEL PETRILLI"
  },
  {
    "id": "642",
    "lat": "37.888834",
    "lon": "-122.260047",
    "name": "MICHELLE JENNES"
  },
  {
    "id": "643",
    "lat": "37.868731",
    "lon": "-122.248745",
    "name": "MICK COONAN"
  },
  {
    "id": "644",
    "lat": "37.848146",
    "lon": "-122.209235",
    "name": "Mike Crommie"
  },
  {
    "id": "645",
    "lat": "37.887239",
    "lon": "-122.293226",
    "name": "MIKE STERLING"
  },
  {
    "id": "646",
    "lat": "37.882719",
    "lon": "-122.269293",
    "name": "Mina Fisher"
  },
  {
    "id": "647",
    "lat": "37.810449",
    "lon": "-122.239864",
    "name": "Mindie Dodson"
  },
  {
    "id": "648",
    "lat": "37.862226",
    "lon": "-122.26219",
    "name": "MISAH PEA"
  },
  {
    "id": "649",
    "lat": "37.746153",
    "lon": "-122.436013",
    "name": "MITCH MUROFF"
  },
  {
    "id": "650",
    "lat": "37.894032",
    "lon": "-122.295982",
    "name": "MOHAN & CARLA NAMBOODIRI"
  },
  {
    "id": "651",
    "lat": "37.882913",
    "lon": "-122.29092",
    "name": "Mollie O'Neil Field"
  },
  {
    "id": "652",
    "lat": "37.883971",
    "lon": "-122.287899",
    "name": "Monet Monaghan/Kenneth Gregg"
  },
  {
    "id": "653",
    "lat": "37.874531",
    "lon": "-122.282515",
    "name": "MORENNA DUN"
  },
  {
    "id": "654",
    "lat": "37.874121",
    "lon": "-122.278915",
    "name": "NAKITA SMALLS"
  },
  {
    "id": "655",
    "lat": "37.900849",
    "lon": "-122.293604",
    "name": "NANCY SCAPE"
  },
  {
    "id": "656",
    "lat": "37.864723",
    "lon": "-122.263226",
    "name": "Nassar"
  },
  {
    "id": "657",
    "lat": "37.859257",
    "lon": "-122.280899",
    "name": "NICOLE L DRAKE"
  },
  {
    "id": "658",
    "lat": "37.862881",
    "lon": "-122.259537",
    "name": "NICOLE LEE"
  },
  {
    "id": "659",
    "lat": "37.870354",
    "lon": "-122.277736",
    "name": "NOELA LONG"
  },
  {
    "id": "660",
    "lat": "37.901268",
    "lon": "-122.26752",
    "name": "NurtureSource Designs"
  },
  {
    "id": "661",
    "lat": "37.815512",
    "lon": "-122.218011",
    "name": "PASTRON, JANICE"
  },
  {
    "id": "662",
    "lat": "37.862817",
    "lon": "-122.253273",
    "name": "PATRICK DONOHUE"
  },
  {
    "id": "663",
    "lat": "37.863591",
    "lon": "-122.26012",
    "name": "Paul Choo"
  },
  {
    "id": "664",
    "lat": "37.914978",
    "lon": "-122.292173",
    "name": "PAWEL PIECH"
  },
  {
    "id": "665",
    "lat": "37.908796",
    "lon": "-122.281979",
    "name": "PIA LUKA"
  },
  {
    "id": "666",
    "lat": "37.841865",
    "lon": "-122.2565",
    "name": "RACHEL F PRAETORIUS"
  },
  {
    "id": "667",
    "lat": "37.874649",
    "lon": "-122.27907",
    "name": "RACHEL GOLD"
  },
  {
    "id": "668",
    "lat": "37.890964",
    "lon": "-122.301299",
    "name": "RALEIGH LATHAM"
  },
  {
    "id": "669",
    "lat": "37.860727",
    "lon": "-122.252095",
    "name": "Ralph Gootee"
  },
  {
    "id": "670",
    "lat": "37.90076",
    "lon": "-122.268434",
    "name": "Raphael Shannon"
  },
  {
    "id": "671",
    "lat": "37.86636",
    "lon": "-122.265134",
    "name": "RATCHID"
  },
  {
    "id": "672",
    "lat": "37.863762",
    "lon": "-122.289643",
    "name": "Rebecca / Andrew Eland"
  },
  {
    "id": "673",
    "lat": "37.866207",
    "lon": "-122.280298",
    "name": "REBECCA MARQUES"
  },
  {
    "id": "674",
    "lat": "37.878569",
    "lon": "-122.299445",
    "name": "Rebecca Mitchell"
  },
  {
    "id": "675",
    "lat": "37.896775",
    "lon": "-122.285809",
    "name": "Regina Hartmann"
  },
  {
    "id": "676",
    "lat": "37.950845",
    "lon": "-122.316728",
    "name": "RICA ANDERSON"
  },
  {
    "id": "677",
    "lat": "37.887432",
    "lon": "-122.295484",
    "name": "RICHARD LANGHAMMER"
  },
  {
    "id": "678",
    "lat": "37.774729",
    "lon": "-122.279792",
    "name": "RICHARDS, LINDA J."
  },
  {
    "id": "679",
    "lat": "37.875787",
    "lon": "-122.287537",
    "name": "RICK WINGARD"
  },
  {
    "id": "680",
    "lat": "37.841767",
    "lon": "-122.251787",
    "name": "RIGO HEADLEY"
  },
  {
    "id": "681",
    "lat": "37.872227",
    "lon": "-122.276731",
    "name": "RISHELL BIERMANN"
  },
  {
    "id": "682",
    "lat": "37.989854",
    "lon": "-122.341464",
    "name": "RITA WHESON"
  },
  {
    "id": "683",
    "lat": "37.863901",
    "lon": "-122.274138",
    "name": "ROB FRANKLIN"
  },
  {
    "id": "684",
    "lat": "37.822625",
    "lon": "-122.189479",
    "name": "ROBERT BRAUND"
  },
  {
    "id": "685",
    "lat": "37.774961",
    "lon": "-122.186756",
    "name": "Robert Freeman/Monica Vasquez"
  },
  {
    "id": "686",
    "lat": "37.762247",
    "lon": "-122.144868",
    "name": "ROY, SHANNON / AUSTIN TACKETT"
  },
  {
    "id": "687",
    "lat": "37.879762",
    "lon": "-122.286719",
    "name": "RUDY PAKRAVAN"
  },
  {
    "id": "688",
    "lat": "37.855976",
    "lon": "-122.237653",
    "name": "RUTH MISKA"
  },
  {
    "id": "689",
    "lat": "37.815243",
    "lon": "-122.244483",
    "name": "Ryan J Meis/Sarah A Labieniec"
  },
  {
    "id": "690",
    "lat": "37.8730098411",
    "lon": "-122.2704282",
    "name": "SAMANTA L GRODEN"
  },
  {
    "id": "691",
    "lat": "37.926972",
    "lon": "-122.312163",
    "name": "SAMANTHA"
  },
  {
    "id": "692",
    "lat": "37.882994",
    "lon": "-122.273994",
    "name": "SAMAR MAHBOUBA"
  },
  {
    "id": "693",
    "lat": "37.927757",
    "lon": "-122.346466",
    "name": "SANDRA ALEXANDER"
  },
  {
    "id": "694",
    "lat": "37.876074",
    "lon": "-122.300996",
    "name": "SARAH MCALLISTER"
  },
  {
    "id": "695",
    "lat": "37.7859",
    "lon": "-122.454433",
    "name": "Sarah Oelschig"
  },
  {
    "id": "696",
    "lat": "37.908134",
    "lon": "-122.279448",
    "name": "SARAH PEACH"
  },
  {
    "id": "697",
    "lat": "37.880649",
    "lon": "-122.290938",
    "name": "SASHA"
  },
  {
    "id": "698",
    "lat": "37.870641",
    "lon": "-122.281332",
    "name": "SATELLITE AFFORDABLE HOUSING ASSOCIATES"
  },
  {
    "id": "699",
    "lat": "37.892711",
    "lon": "-122.261873",
    "name": "SATOSHI & ELAINE STEIMETZ"
  },
  {
    "id": "700",
    "lat": "37.863109",
    "lon": "-122.280486",
    "name": "Scott Seebass"
  },
  {
    "id": "701",
    "lat": "37.897361",
    "lon": "-122.55182",
    "name": "SEJAL BINNINGS"
  },
  {
    "id": "702",
    "lat": "37.905203",
    "lon": "-122.280128",
    "name": "SERENA HEASLIP"
  },
  {
    "id": "703",
    "lat": "37.906934",
    "lon": "-122.271577",
    "name": "SHANNON HOLLOWAY"
  },
  {
    "id": "704",
    "lat": "37.820666",
    "lon": "-122.25146",
    "name": "SHARLENE/RON STANSBURY"
  },
  {
    "id": "705",
    "lat": "37.924828",
    "lon": "-122.298722",
    "name": "Sharon Combs- Brown"
  },
  {
    "id": "706",
    "lat": "37.89354",
    "lon": "-122.298423",
    "name": "SHARON MEDAIRY"
  },
  {
    "id": "707",
    "lat": "37.857996",
    "lon": "-122.25469",
    "name": "Sharon Moore"
  },
  {
    "id": "708",
    "lat": "37.890543",
    "lon": "-122.289539",
    "name": "SHAWN RUBIN"
  },
  {
    "id": "709",
    "lat": "37.882104",
    "lon": "-122.291133",
    "name": "SHEA, REBECCA & BRIAN"
  },
  {
    "id": "710",
    "lat": "37.845051",
    "lon": "-122.295366",
    "name": "SHERI HARTMAN"
  },
  {
    "id": "711",
    "lat": "37.80407",
    "lon": "-122.250761",
    "name": "Sherman Wong"
  },
  {
    "id": "712",
    "lat": "37.811316",
    "lon": "-122.268224",
    "name": "SHINE CHIROPRACTIC."
  },
  {
    "id": "713",
    "lat": "37.84982",
    "lon": "-122.275265",
    "name": "SHIRLEY STAVINGA"
  },
  {
    "id": "714",
    "lat": "37.879755",
    "lon": "-122.263899",
    "name": "SHORE, ZACHARY"
  },
  {
    "id": "715",
    "lat": "37.821146",
    "lon": "-122.23069",
    "name": "SINGER, BARBARA & ANDREW"
  },
  {
    "id": "716",
    "lat": "37.875072",
    "lon": "-122.27528",
    "name": "SIOBHAN D GRAY"
  },
  {
    "id": "717",
    "lat": "37.892072",
    "lon": "-122.283784",
    "name": "SLAVAZZA, GLORIA / MCALLISTER, JULIE"
  },
  {
    "id": "718",
    "lat": "37.874686",
    "lon": "-122.274539",
    "name": "SLAVIK SHEREMIROV"
  },
  {
    "id": "719",
    "lat": "37.833064",
    "lon": "-122.288223",
    "name": "SOFIA CORDOVA"
  },
  {
    "id": "720",
    "lat": "37.901089",
    "lon": "-122.275257",
    "name": "STACEY CLARK & RICHARD FREI"
  },
  {
    "id": "721",
    "lat": "37.857568",
    "lon": "-122.276642",
    "name": "STEPHEN BLOOM"
  },
  {
    "id": "722",
    "lat": "37.888542",
    "lon": "-122.296295",
    "name": "STUDLEY, ROGER / LEVY, KAREN"
  },
  {
    "id": "723",
    "lat": "37.853133",
    "lon": "-122.260579",
    "name": "SUMMI KAIPA"
  },
  {
    "id": "724",
    "lat": "37.896038",
    "lon": "-122.284352",
    "name": "SUMNER BENNET"
  },
  {
    "id": "725",
    "lat": "37.881239",
    "lon": "-122.295078",
    "name": "SUN KIM"
  },
  {
    "id": "726",
    "lat": "37.8661",
    "lon": "-122.250352",
    "name": "SUNITA BABBAR"
  },
  {
    "id": "727",
    "lat": "37.853034",
    "lon": "-122.261609",
    "name": "Susan Dickey"
  },
  {
    "id": "728",
    "lat": "37.807256",
    "lon": "-122.236891",
    "name": "Susan Fuller Novak/ Matthew Novak"
  },
  {
    "id": "729",
    "lat": "37.874115",
    "lon": "-122.292508",
    "name": "SUSAN GRABIA"
  },
  {
    "id": "730",
    "lat": "37.850622",
    "lon": "-122.282567",
    "name": "SUSAN KARLSSON"
  },
  {
    "id": "731",
    "lat": "37.89501",
    "lon": "-122.281612",
    "name": "Susan Sandson"
  },
  {
    "id": "732",
    "lat": "37.842269",
    "lon": "-122.230233",
    "name": "Tamar M Cohen"
  },
  {
    "id": "733",
    "lat": "37.865437",
    "lon": "-122.222495",
    "name": "Tamia Marg"
  },
  {
    "id": "734",
    "lat": "37.892893",
    "lon": "-122.300499",
    "name": "TANYA COLLI"
  },
  {
    "id": "735",
    "lat": "37.820305",
    "lon": "-122.28878",
    "name": "Tanya Holland"
  },
  {
    "id": "736",
    "lat": "37.883451",
    "lon": "-122.295517",
    "name": "Terry Chen"
  },
  {
    "id": "737",
    "lat": "37.638114",
    "lon": "-121.792566",
    "name": "TERRY HINMAN"
  },
  {
    "id": "738",
    "lat": "37.857599",
    "lon": "-122.281362",
    "name": "TIMOTHY MELTON"
  },
  {
    "id": "739",
    "lat": "37.88662",
    "lon": "-122.275532",
    "name": "TINA BOYER"
  },
  {
    "id": "740",
    "lat": "37.870417",
    "lon": "-122.269287",
    "name": "TINA KARMIAN"
  },
  {
    "id": "741",
    "lat": "37.864395",
    "lon": "-122.258764",
    "name": "TOM SHIELDS"
  },
  {
    "id": "742",
    "lat": "37.862737",
    "lon": "-122.246136",
    "name": "TUONG-VI FABER"
  },
  {
    "id": "743",
    "lat": "37.517441",
    "lon": "-121.977662",
    "name": "VANESSA SALCIDO"
  },
  {
    "id": "744",
    "lat": "37.964436",
    "lon": "-122.308769",
    "name": "WENDY TAYLOR"
  },
  {
    "id": "745",
    "lat": "37.891403",
    "lon": "-122.295004",
    "name": "Wesley M Jackson & Natalie A Leblanc"
  },
  {
    "id": "746",
    "lat": "37.879309",
    "lon": "-122.292514",
    "name": "WILLEY ROSENTHAL"
  },
  {
    "id": "747",
    "lat": "37.876309",
    "lon": "-122.265069",
    "name": "WINNIE LAM"
  },
  {
    "id": "748",
    "lat": "37.864363",
    "lon": "-122.254951",
    "name": "Yuan Yuan Pan"
  },
  {
    "id": "1441",
    "lat": "37.8814799",
    "lon": "-122.2908846",
    "name": "Oficina Casa Azul"
  },
  {
    "id": "7540",
    "lat": "37.917238",
    "lon": "-122.304442",
    "name": "A.M. or M.B. Beltramo"
  },
  {
    "id": "10756",
    "lat": "37.9112129117",
    "lon": "-122.32016185",
    "name": "Casa Isabel"
  },
  {
    "id": "10768",
    "lat": "37.8793818675",
    "lon": "-122.25904921",
    "name": "Claire D, attracta@mac.com, 510 508-9967, "
  },
  {
    "id": "10769",
    "lat": "37.8857278938",
    "lon": "-122.28897734",
    "name": "Krista Bell"
  },
  {
    "id": "10775",
    "lat": "37.7749295173",
    "lon": "-122.41941557",
    "name": "Traslado/Driving"
  },
  {
    "id": "10890",
    "lat": "37.8800033149",
    "lon": "-122.29529244",
    "name": "Urban Mattress"
  },
  {
    "id": "10891",
    "lat": "37.7941781806",
    "lon": "-122.21880241",
    "name": "Cathy broder, 2 hrs, 510.434.1500, "
  },
  {
    "id": "10902",
    "lat": "37.862148",
    "lon": "-122.254641",
    "name": "Vine St Properties "
  },
  {
    "id": "10903",
    "lat": "37.862148",
    "lon": "-122.254641",
    "name": "Vine St Properties "
  },
  {
    "id": "10904",
    "lat": "37.901190529",
    "lon": "-122.30869529",
    "name": "3205 San Mateo, PROPERTIES"
  },
  {
    "id": "10905",
    "lat": "37.8787883913",
    "lon": "-122.27949374",
    "name": "Richard Epstein"
  },
  {
    "id": "10906",
    "lat": "37.8787883913",
    "lon": "-122.27949374",
    "name": "Richard Epstein"
  },
  {
    "id": "10907",
    "lat": "37.8787883913",
    "lon": "-122.27949374",
    "name": "Richard Epstein"
  },
  {
    "id": "10908",
    "lat": "37.8787883913",
    "lon": "-122.27949374",
    "name": "Richard Epstein"
  },
  {
    "id": "10910",
    "lat": "37.8787883913",
    "lon": "-122.27949374",
    "name": "Richard Epstein"
  },
  {
    "id": "10911",
    "lat": "37.8787883913",
    "lon": "-122.27949374",
    "name": "Richard Epstein"
  },
  {
    "id": "11362",
    "lat": "37.8846318562",
    "lon": "-122.29018591",
    "name": "Nick Paterson"
  },
  {
    "id": "11363",
    "lat": "37.8846318562",
    "lon": "-122.29018591",
    "name": "Nick Paterson"
  },
  {
    "id": "11837",
    "lat": "37.8330644218",
    "lon": "-122.28822384",
    "name": "Sofia Cordova"
  },
  {
    "id": "11838",
    "lat": "37.8821426276",
    "lon": "-122.29052559",
    "name": "Casa Azul Oficina"
  },
  {
    "id": "11880",
    "lat": "37.8100551",
    "lon": "-122.27439",
    "name": "Customer 2"
  },
  {
    "id": "11881",
    "lat": "37.82226",
    "lon": "-122.28572",
    "name": "Customer 1"
  }
]